t_rx,seq,t_us,ax,ay,az,gx,gy,gz,roll,pitch,g_lat,g_lon,yaw_rate,rssi,snr,lost,total
1784654651.255,1140,229592141,4.628,1.527,-8.649,-0.027,-0.163,-0.097,-192.363,-28.385,0.156,0.472,-0.097,-44,10.00,0,1
1784654651.455,1141,229792142,4.651,1.988,-8.606,-0.118,0.416,-0.067,-192.260,-28.322,0.203,0.474,-0.067,-44,9.25,0,2
1784654651.655,1142,229992140,4.578,1.995,-8.356,0.157,-0.347,-0.250,-192.170,-28.472,0.203,0.467,-0.250,-44,9.50,0,3
1784654651.855,1143,230192142,4.671,1.920,-8.469,-0.118,0.020,-0.036,-192.197,-28.362,0.196,0.476,-0.036,-45,9.75,0,4
1784654652.054,1144,230392140,4.713,1.923,-8.493,0.034,0.172,-0.036,-192.269,-28.458,0.196,0.481,-0.036,-44,9.75,0,5
1784654652.254,1145,230592141,4.673,1.889,-8.476,0.034,0.050,-0.067,-192.251,-28.436,0.193,0.477,-0.067,-44,10.25,0,6
1784654652.449,1146,230792141,4.690,1.831,-8.481,-0.027,0.050,0.055,-192.222,-28.413,0.187,0.478,0.055,-44,9.75,0,7
1784654652.649,1147,230992142,4.764,1.850,-8.570,-0.088,0.416,0.086,-192.282,-28.390,0.189,0.486,0.086,-44,10.00,0,8
1784654652.849,1148,231192142,4.766,1.761,-8.606,0.218,0.172,0.025,-192.202,-28.511,0.180,0.486,0.025,-43,10.25,0,9
1784654653.050,1149,231392141,4.680,1.826,-8.510,-0.088,0.050,0.055,-192.291,-28.470,0.186,0.477,0.055,-44,10.00,0,10
1784654653.249,1150,231592142,4.747,1.812,-8.500,0.004,0.111,0.025,-192.277,-28.439,0.185,0.484,0.025,-43,9.25,0,11
1784654653.449,1151,231792142,4.649,1.771,-8.519,-0.118,0.264,0.086,-191.948,-28.320,0.181,0.474,0.086,-43,9.50,0,12
1784654653.655,1152,231992140,4.418,1.754,-8.563,0.340,-0.255,-0.311,-192.063,-28.340,0.179,0.450,-0.311,-44,9.25,0,13
1784654653.855,1153,232192141,4.640,1.834,-8.514,-0.027,0.142,-0.128,-192.213,-28.371,0.187,0.473,-0.128,-43,9.50,0,14
1784654654.055,1154,232392140,4.661,1.887,-8.394,0.157,-0.072,-0.128,-192.193,-28.501,0.192,0.475,-0.128,-43,9.75,0,15
1784654654.249,1155,232592143,4.640,1.759,-8.582,0.096,0.081,0.117,-192.067,-28.424,0.179,0.473,0.117,-43,9.25,0,16
1784654654.455,1156,232792140,4.620,1.923,-8.510,0.279,-0.255,-0.158,-192.331,-28.535,0.196,0.471,-0.158,-43,10.00,0,17
1784654654.655,1157,232992142,4.487,1.925,-8.514,0.004,-0.102,-0.097,-191.968,-28.257,0.196,0.458,-0.097,-44,10.00,0,18
1784654654.849,1158,233192140,4.804,1.901,-8.433,-0.393,0.203,0.422,-192.068,-28.380,0.194,0.490,0.422,-44,9.75,0,19
1784654655.055,1159,233392142,4.938,1.776,-8.426,0.126,0.081,-0.494,-192.166,-28.087,0.181,0.503,-0.494,-44,9.75,0,20
1784654655.250,1160,233592140,4.678,1.894,-8.406,-0.240,0.294,0.208,-192.557,-28.287,0.193,0.477,0.208,-44,9.75,0,21
1784654655.455,1161,233792142,4.711,1.790,-8.414,0.218,-0.163,-0.555,-191.918,-28.589,0.183,0.480,-0.555,-44,9.50,0,22
1784654655.650,1162,233992140,4.787,1.658,-8.594,-0.149,0.599,0.361,-192.314,-28.208,0.169,0.488,0.361,-44,10.00,0,23
1784654655.855,1163,234192142,4.346,1.918,-8.330,-0.179,-1.018,0.117,-192.429,-28.329,0.196,0.443,0.117,-44,9.75,0,24
1784654656.049,1164,234392140,4.704,1.771,-8.459,-0.240,0.020,0.300,-192.278,-28.431,0.181,0.480,0.300,-42,9.50,0,25
1784654656.255,1165,234592142,4.702,1.867,-8.445,0.096,0.142,-0.036,-192.315,-28.433,0.190,0.479,-0.036,-42,9.75,0,26
1784654656.455,1166,234792140,4.706,1.964,-8.471,0.218,0.020,-0.219,-192.338,-28.610,0.200,0.480,-0.219,-42,9.50,0,27
1784654656.655,1167,234992142,4.687,1.730,-8.440,0.065,-0.225,-0.219,-191.986,-28.582,0.176,0.478,-0.219,-43,10.00,0,28
1784654656.855,1168,235192141,4.725,1.771,-8.457,0.004,0.081,-0.097,-192.185,-28.464,0.181,0.482,-0.097,-43,9.50,0,29
1784654657.050,1169,235392141,4.690,1.887,-8.522,-0.057,0.233,0.055,-192.276,-28.329,0.192,0.478,0.055,-42,9.75,0,30
1784654657.249,1170,235592141,4.725,1.759,-8.474,0.004,0.111,0.147,-192.189,-28.429,0.179,0.482,0.147,-42,9.50,0,31
1784654657.455,1171,235792141,4.685,1.756,-8.548,-0.118,-0.072,0.208,-192.288,-28.406,0.179,0.478,0.208,-42,9.50,0,32
1784654657.655,1172,235992140,4.661,1.870,-8.517,-0.240,-0.072,0.117,-192.324,-28.418,0.191,0.475,0.117,-43,10.00,0,33
1784654657.855,1173,236192141,4.699,1.911,-8.471,0.004,0.020,-0.036,-192.260,-28.461,0.195,0.479,-0.036,-43,9.50,0,34
1784654658.055,1174,236392140,4.675,1.853,-8.543,-0.027,-0.072,0.147,-192.272,-28.438,0.189,0.477,0.147,-43,9.50,0,35
1784654658.255,1175,236592142,4.680,1.829,-8.474,0.034,0.081,-0.036,-192.225,-28.460,0.186,0.477,-0.036,-43,9.00,0,36
1784654658.455,1176,236792140,4.678,1.817,-8.507,-0.118,-0.011,0.117,-192.274,-28.496,0.185,0.477,0.117,-43,9.50,0,37
1784654658.655,1177,236992141,4.711,1.865,-8.474,-0.057,-0.011,0.025,-192.333,-28.477,0.190,0.480,0.025,-43,9.50,0,38
1784654658.855,1178,237192142,4.678,1.863,-8.486,0.126,0.050,-0.067,-192.225,-28.423,0.190,0.477,-0.067,-43,9.50,0,39
1784654659.055,1179,237392142,4.666,1.834,-8.510,-0.057,0.081,-0.067,-192.241,-28.370,0.187,0.476,-0.067,-43,9.25,0,40
1784654659.255,1180,237592140,4.697,1.865,-8.478,-0.027,0.020,-0.006,-192.287,-28.446,0.190,0.479,-0.006,-43,9.00,0,41
1784654659.455,1181,237792141,4.704,1.870,-8.488,0.096,-0.041,-0.067,-192.260,-28.442,0.191,0.480,-0.067,-44,9.25,0,42
1784654659.655,1182,237992142,4.690,1.889,-8.483,0.065,0.020,-0.006,-192.267,-28.471,0.193,0.478,-0.006,-43,9.50,0,43
1784654659.855,1183,238192142,4.706,1.846,-8.476,0.034,0.081,-0.067,-192.256,-28.409,0.188,0.480,-0.067,-42,9.25,0,44
1784654660.055,1184,238392140,4.706,1.899,-8.502,0.034,-0.011,-0.036,-192.264,-28.430,0.194,0.480,-0.036,-43,9.50,0,45
1784654660.250,1185,238592142,4.682,1.829,-8.466,0.034,-0.011,0.025,-192.197,-28.450,0.186,0.477,0.025,-42,9.25,0,46
1784654660.450,1186,238792140,4.718,1.783,-8.502,-0.057,0.111,0.055,-192.208,-28.388,0.182,0.481,0.055,-42,9.50,0,47
1784654660.650,1187,238992142,4.690,1.850,-8.512,0.034,-0.041,0.025,-192.303,-28.429,0.189,0.478,0.025,-42,9.25,0,48
1784654660.855,1188,239192140,4.706,1.865,-8.500,-0.027,0.020,-0.006,-192.220,-28.437,0.190,0.480,-0.006,-43,9.25,0,49
1784654661.055,1189,239392141,4.692,1.824,-8.488,0.065,0.020,-0.006,-192.227,-28.375,0.186,0.478,-0.006,-42,9.25,0,50
1784654661.255,1190,239592140,4.685,1.860,-8.495,-0.027,-0.102,0.025,-192.268,-28.380,0.190,0.478,0.025,-43,10.25,0,51
1784654661.455,1191,239792141,4.687,1.884,-8.498,-0.057,0.081,-0.006,-192.239,-28.359,0.192,0.478,-0.006,-43,9.25,0,52
1784654661.655,1192,239992140,4.692,1.836,-8.478,-0.027,-0.041,-0.006,-192.235,-28.409,0.187,0.478,-0.006,-43,9.25,0,53
1784654661.850,1193,240192142,4.687,1.831,-8.481,-0.088,0.020,0.055,-192.241,-28.417,0.187,0.478,0.055,-42,9.25,0,54
1784654662.050,1194,240392140,4.690,1.834,-8.500,-0.057,0.050,0.086,-192.273,-28.420,0.187,0.478,0.086,-43,9.25,0,55
1784654662.255,1195,240592142,4.723,1.843,-8.450,-0.149,-0.041,0.055,-192.292,-28.463,0.188,0.482,0.055,-43,9.50,0,56
1784654662.450,1196,240792140,4.685,1.846,-8.500,-0.088,0.111,0.055,-192.278,-28.390,0.188,0.478,0.055,-43,9.25,0,57
1784654662.650,1197,240992141,4.692,1.829,-8.498,-0.088,0.020,0.086,-192.248,-28.422,0.186,0.478,0.086,-43,9.25,0,58
1784654662.855,1198,241192140,4.685,1.843,-8.488,-0.027,0.050,-0.006,-192.224,-28.408,0.188,0.478,-0.006,-43,9.00,0,59
1784654663.050,1199,241392142,4.711,1.848,-8.459,0.034,0.020,0.025,-192.202,-28.454,0.188,0.480,0.025,-43,9.50,0,60
1784654663.255,1200,241592140,4.699,1.877,-8.507,-0.179,-0.011,0.117,-192.349,-28.441,0.191,0.479,0.117,-43,9.50,0,61
1784654663.455,1201,241792142,4.661,1.901,-8.553,-0.027,-0.102,0.025,-192.304,-28.334,0.194,0.475,0.025,-43,9.75,0,62
1784654663.655,1202,241992140,4.675,1.841,-8.498,0.218,-0.072,-0.128,-192.139,-28.469,0.188,0.477,-0.128,-42,9.25,0,63
1784654663.855,1203,242192142,4.718,1.846,-8.474,-0.179,-0.041,0.086,-192.334,-28.448,0.188,0.481,0.086,-42,9.50,0,64
1784654664.050,1204,242392140,4.680,1.918,-8.478,-0.118,0.050,0.117,-192.302,-28.313,0.196,0.477,0.117,-42,9.25,0,65
1784654664.255,1205,242592141,4.666,1.805,-8.565,-0.027,0.142,-0.006,-192.216,-28.366,0.184,0.476,-0.006,-43,9.75,0,66
1784654664.455,1206,242792142,4.699,1.834,-8.483,0.004,-0.011,-0.006,-192.216,-28.427,0.187,0.479,-0.006,-43,10.00,0,67
1784654664.655,1207,242992141,4.706,1.795,-8.505,-0.149,-0.011,0.025,-192.210,-28.420,0.183,0.480,0.025,-43,10.00,0,68
1784654664.855,1208,243192141,4.694,1.838,-8.486,0.034,0.020,-0.006,-192.172,-28.425,0.187,0.479,-0.006,-43,9.75,0,69
1784654665.055,1209,243392142,4.692,1.853,-8.495,0.004,0.020,-0.006,-192.224,-28.387,0.189,0.478,-0.006,-42,9.75,0,70
1784654665.255,1210,243592140,4.687,1.855,-8.469,-0.088,-0.011,0.025,-192.211,-28.419,0.189,0.478,0.025,-43,10.00,0,71
1784654665.455,1211,243792141,4.718,1.858,-8.510,-0.027,0.172,-0.097,-192.170,-28.399,0.189,0.481,-0.097,-42,9.25,0,72
1784654665.650,1212,243992140,4.625,1.781,-8.466,0.218,-0.133,0.117,-192.145,-28.374,0.182,0.472,0.117,-43,9.00,0,73
1784654665.855,1213,244192142,4.680,1.819,-8.488,-0.057,0.081,-0.067,-192.214,-28.461,0.186,0.477,-0.067,-43,9.25,0,74
1784654666.055,1214,244392140,4.711,1.826,-8.478,-0.210,-0.041,0.086,-192.258,-28.461,0.186,0.480,0.086,-42,9.75,0,75
1784654666.250,1215,244592141,4.671,1.850,-8.476,-0.088,0.081,0.086,-192.257,-28.375,0.189,0.476,0.086,-42,9.50,0,76
1784654666.450,1216,244792140,4.618,1.826,-8.421,0.157,-0.347,0.025,-192.278,-28.402,0.186,0.471,0.025,-42,9.25,0,77
1784654666.655,1217,244992141,4.704,1.858,-8.457,-0.088,-0.011,0.086,-192.211,-28.462,0.189,0.480,0.086,-43,9.50,0,78
1784654666.855,1218,245192140,4.704,1.882,-8.459,0.157,0.020,-0.189,-192.248,-28.447,0.192,0.480,-0.189,-42,9.50,0,79
1784654667.050,1219,245392141,4.659,1.884,-8.488,0.157,-0.072,0.025,-192.208,-28.334,0.192,0.475,0.025,-42,9.50,0,80
1784654667.255,1220,245592140,4.678,1.877,-8.517,-0.027,0.020,-0.067,-192.194,-28.388,0.191,0.477,-0.067,-43,9.25,0,81
1784654667.450,1221,245792141,4.680,1.836,-8.476,-0.027,0.050,0.055,-192.225,-28.397,0.187,0.477,0.055,-42,9.50,0,82
1784654667.650,1222,245992140,4.663,1.831,-8.502,0.004,0.142,0.025,-192.223,-28.350,0.187,0.476,0.025,-43,9.25,0,83
1784654667.855,1223,246192141,4.668,1.834,-8.519,-0.027,-0.011,-0.097,-192.197,-28.379,0.187,0.476,-0.097,-43,9.50,0,84
1784654668.055,1224,246392140,4.675,1.867,-8.471,0.034,-0.011,-0.036,-192.232,-28.424,0.190,0.477,-0.036,-43,9.25,0,85
1784654668.250,1225,246592142,4.711,1.807,-8.474,0.065,0.142,0.086,-192.152,-28.371,0.184,0.480,0.086,-43,9.25,0,86
1784654668.450,1226,246792140,4.649,1.843,-8.527,-0.118,0.050,0.178,-192.294,-28.301,0.188,0.474,0.178,-43,9.25,0,87
1784654668.655,1227,246992142,4.659,1.879,-8.546,-0.118,-0.102,0.025,-192.258,-28.408,0.192,0.475,0.025,-42,10.00,0,88
1784654668.850,1228,247192141,4.773,1.884,-8.488,-0.088,0.050,0.086,-192.298,-28.454,0.192,0.487,0.086,-43,9.25,0,89
1784654669.055,1229,247392141,4.737,1.990,-8.370,-0.271,-0.133,0.086,-192.358,-28.271,0.203,0.483,0.086,-43,9.50,0,90
1784654669.255,1230,247592140,4.730,1.795,-8.596,0.187,0.660,-0.280,-192.031,-28.178,0.183,0.482,-0.280,-42,9.50,0,91
1784654669.456,1231,247792141,4.768,1.790,-8.474,-0.149,-0.163,-0.036,-192.278,-28.623,0.183,0.486,-0.036,-42,9.50,0,92
1784654669.655,1232,247992140,4.773,1.843,-8.459,0.034,0.081,-0.067,-192.281,-28.443,0.188,0.487,-0.067,-42,9.25,0,93
1784654669.855,1233,248192142,4.673,1.846,-8.495,0.065,-0.072,-0.036,-192.177,-28.446,0.188,0.477,-0.036,-43,9.50,0,94
1784654670.055,1234,248392140,4.680,1.797,-8.522,-0.088,-0.102,0.086,-192.192,-28.402,0.183,0.477,0.086,-42,9.50,0,95
1784654670.255,1235,248592141,4.666,1.843,-8.541,0.034,-0.041,-0.006,-192.249,-28.386,0.188,0.476,-0.006,-43,9.25,0,96
1784654670.455,1236,248792140,4.694,1.891,-8.493,-0.210,-0.286,0.117,-192.345,-28.520,0.193,0.479,0.117,-42,9.75,0,97
1784654670.655,1237,248992141,4.747,1.930,-8.466,-0.149,-0.530,0.391,-192.358,-28.536,0.197,0.484,0.391,-43,9.50,0,98
1784654670.855,1238,249192140,4.725,1.949,-8.450,-0.027,-0.194,0.391,-192.167,-28.567,0.199,0.482,0.391,-43,9.75,0,99
1784654671.050,1239,249392142,4.783,1.853,-8.481,-0.027,0.203,0.025,-192.241,-28.252,0.189,0.488,0.025,-45,9.75,0,100
1784654671.256,1240,249592140,4.883,1.891,-8.438,-0.271,0.722,-0.524,-192.469,-27.842,0.193,0.498,-0.524,-46,10.00,0,101
1784654671.456,1241,249792141,4.785,1.901,-8.481,-0.271,-0.041,-0.006,-192.384,-28.238,0.194,0.488,-0.006,-45,9.75,0,102
1784654671.650,1242,249992140,4.649,1.713,-8.555,-0.149,0.020,0.208,-192.245,-28.168,0.175,0.474,0.208,-46,9.50,0,103
1784654671.855,1243,250192142,4.711,1.795,-8.527,-0.118,-0.102,0.147,-192.356,-28.317,0.183,0.480,0.147,-46,9.75,0,104
1784654672.056,1244,250392141,4.659,1.805,-8.541,-0.027,0.050,-0.036,-192.150,-28.322,0.184,0.475,-0.036,-46,9.75,0,105
1784654672.255,1245,250592141,4.582,1.740,-8.584,0.431,0.020,-0.006,-192.191,-28.091,0.177,0.467,-0.006,-45,9.75,0,106
1784654672.455,1246,250792140,4.551,1.908,-8.822,-0.362,0.752,-0.067,-192.245,-28.043,0.195,0.464,-0.067,-44,9.75,0,107
1784654672.656,1247,250992142,4.604,2.084,-8.551,-0.515,-0.408,-0.128,-192.637,-28.900,0.213,0.469,-0.128,-43,9.25,0,108
1784654672.856,1248,251192140,4.599,1.834,-8.435,-0.118,-0.041,-0.280,-191.942,-28.390,0.187,0.469,-0.280,-43,9.25,0,109
1784654673.056,1249,251392142,4.609,1.855,-8.474,0.034,-0.255,-0.097,-192.185,-28.314,0.189,0.470,-0.097,-43,9.25,0,110
1784654673.256,1250,251592140,4.823,1.593,-8.426,0.340,-0.225,-0.738,-191.643,-28.749,0.162,0.492,-0.738,-42,9.75,0,111
1784654673.455,1251,251792142,4.756,1.947,-8.466,-0.149,-0.041,0.239,-192.433,-28.315,0.199,0.485,0.239,-42,9.50,0,112
1784654673.656,1252,251992140,4.728,1.838,-8.452,-0.088,0.203,-0.219,-192.183,-28.251,0.187,0.482,-0.219,-43,9.25,0,113
1784654673.856,1253,252192143,4.558,1.824,-8.478,-0.271,0.294,-0.067,-191.949,-28.024,0.186,0.465,-0.067,-42,9.75,0,114
1784654674.055,1254,252392140,4.704,1.937,-8.517,0.034,-0.011,-0.158,-192.171,-28.279,0.198,0.480,-0.158,-42,9.75,0,115
1784654674.255,1255,252592141,4.737,1.896,-8.524,-0.210,-0.133,0.117,-192.263,-28.475,0.193,0.483,0.117,-42,9.00,0,116
1784654674.450,1256,252792140,4.773,1.846,-8.459,-0.179,0.050,0.330,-192.224,-28.525,0.188,0.487,0.330,-43,9.75,0,117
1784654674.650,1257,252992142,4.806,1.850,-8.426,0.065,-0.011,0.025,-192.083,-28.515,0.189,0.490,0.025,-43,9.75,0,118
1784654674.855,1258,253192140,4.761,1.891,-8.433,-0.301,-0.133,0.391,-192.246,-28.203,0.193,0.486,0.391,-42,10.25,0,119
1784654675.056,1259,253392143,4.420,1.737,-8.671,0.431,-0.743,-0.036,-192.187,-28.563,0.177,0.451,-0.036,-42,10.00,0,120
1784654675.256,1260,253592140,4.768,1.964,-8.589,0.065,0.722,-0.372,-192.501,-28.504,0.200,0.486,-0.372,-42,9.25,0,121
1784654675.456,1261,253792142,4.816,1.824,-8.435,0.981,-0.347,-1.074,-191.596,-28.832,0.186,0.491,-1.074,-43,9.75,0,122
1784654675.650,1262,253992142,4.780,1.609,-8.471,0.706,0.020,0.300,-192.114,-28.317,0.164,0.487,0.300,-43,9.25,0,123
1784654675.851,1263,254192141,4.778,1.814,-8.428,-0.423,0.142,0.086,-192.503,-28.523,0.185,0.487,0.086,-42,9.75,0,124
1784654676.056,1264,254392140,4.618,1.896,-8.582,0.370,-0.408,-0.280,-192.148,-28.365,0.193,0.471,-0.280,-43,9.25,0,125
1784654676.255,1265,254592142,4.697,1.836,-8.426,0.218,0.142,-0.189,-192.129,-28.417,0.187,0.479,-0.189,-43,9.50,0,126
1784654676.455,1266,254792140,4.709,1.846,-8.505,-0.149,-0.011,0.178,-192.300,-28.377,0.188,0.480,0.178,-43,9.00,0,127
1784654676.655,1267,254992143,4.673,1.882,-8.514,-0.027,-0.102,0.055,-192.310,-28.368,0.192,0.477,0.055,-42,9.75,0,128
1784654676.856,1268,255192141,4.675,1.836,-8.469,0.065,-0.072,-0.067,-192.216,-28.444,0.187,0.477,-0.067,-43,9.25,0,129
1784654677.050,1269,255392143,4.761,1.877,-8.438,-0.271,0.111,0.147,-192.312,-28.477,0.191,0.486,0.147,-42,9.50,0,130
1784654677.256,1270,255592141,4.761,1.846,-8.397,-0.027,0.599,-0.128,-192.003,-28.223,0.188,0.486,-0.128,-43,9.25,0,131
1784654677.455,1271,255792142,4.733,1.740,-8.507,-0.118,-0.225,0.178,-192.192,-28.474,0.177,0.483,0.178,-42,9.25,0,132
1784654677.656,1272,255992140,4.606,1.829,-8.534,-0.057,-0.011,-0.189,-192.272,-28.085,0.186,0.470,-0.189,-42,9.75,0,133
1784654677.850,1273,256192142,4.747,1.949,-8.764,-0.027,0.447,0.147,-192.269,-28.431,0.199,0.484,0.147,-42,9.50,0,134
1784654678.050,1274,256392141,4.692,1.831,-8.450,0.187,0.020,0.055,-192.235,-28.401,0.187,0.478,0.055,-43,9.50,0,135
1784654678.256,1275,256592141,4.558,1.797,-8.471,-0.179,-0.041,0.117,-192.335,-28.276,0.183,0.465,0.117,-42,10.25,0,136
1784654678.450,1276,256792140,4.721,1.853,-8.594,0.065,-0.011,0.117,-192.230,-28.462,0.189,0.481,0.117,-43,9.50,0,137
1784654678.656,1277,256992143,4.680,1.812,-8.442,0.004,-0.163,-0.067,-192.199,-28.460,0.185,0.477,-0.067,-43,9.50,0,138
1784654678.850,1278,257192140,4.680,1.887,-8.495,0.034,0.111,0.086,-192.325,-28.373,0.192,0.477,0.086,-42,9.50,0,139
1784654679.056,1279,257392143,4.697,1.855,-8.483,0.065,0.081,-0.128,-192.221,-28.421,0.189,0.479,-0.128,-43,9.75,0,140
1784654679.256,1280,257592140,4.702,1.822,-8.483,-0.027,-0.011,-0.006,-192.220,-28.428,0.186,0.479,-0.006,-43,9.50,0,141
1784654679.450,1281,257792143,4.699,1.853,-8.488,-0.088,0.081,0.147,-192.299,-28.427,0.189,0.479,0.147,-42,9.25,0,142
1784654679.656,1282,257992140,4.690,1.836,-8.462,0.065,-0.041,-0.067,-192.249,-28.455,0.187,0.478,-0.067,-43,9.75,0,143
1784654679.850,1283,258192141,4.692,1.812,-8.500,0.004,0.142,0.055,-192.214,-28.449,0.185,0.478,0.055,-42,9.50,0,144
1784654680.056,1284,258392140,4.704,1.822,-8.476,-0.057,0.081,-0.006,-192.295,-28.440,0.186,0.480,-0.006,-42,10.00,0,145
1784654680.250,1285,258592143,4.697,1.846,-8.495,0.004,0.081,0.086,-192.302,-28.447,0.188,0.479,0.086,-42,9.50,0,146
1784654680.456,1286,258792140,4.697,1.846,-8.471,0.034,0.050,-0.006,-192.264,-28.467,0.188,0.479,-0.006,-42,9.50,0,147
1784654680.656,1287,258992142,4.728,1.870,-8.486,0.096,-0.041,-0.097,-192.255,-28.433,0.191,0.482,-0.097,-43,9.25,0,148
1784654680.856,1288,259192141,4.694,1.843,-8.469,0.126,0.111,-0.097,-192.229,-28.408,0.188,0.479,-0.097,-42,9.25,0,149
1784654681.056,1289,259392141,4.654,1.838,-8.502,0.004,0.020,-0.006,-192.286,-28.416,0.187,0.475,-0.006,-43,9.25,0,150
1784654681.256,1290,259592140,4.682,1.841,-8.476,-0.027,-0.072,-0.097,-192.253,-28.442,0.188,0.477,-0.097,-42,9.75,0,151
1784654681.450,1291,259792141,4.716,1.846,-8.481,-0.027,0.081,0.025,-192.276,-28.424,0.188,0.481,0.025,-42,9.50,0,152
1784654681.656,1292,259992140,4.685,1.829,-8.495,0.126,-0.011,-0.067,-192.216,-28.444,0.186,0.478,-0.067,-42,9.25,0,153
1784654681.851,1293,260192141,4.725,1.836,-8.517,0.034,-0.011,0.055,-192.212,-28.440,0.187,0.482,0.055,-42,9.50,0,154
1784654682.056,1294,260392140,4.713,1.889,-8.510,-0.088,-0.163,-0.067,-192.279,-28.531,0.193,0.481,-0.067,-42,9.25,0,155
1784654682.256,1295,260592141,4.649,1.836,-8.486,0.157,-0.041,-0.067,-192.297,-28.382,0.187,0.474,-0.067,-42,9.50,0,156
1784654682.456,1296,260792140,4.716,1.838,-8.500,0.004,-0.102,-0.006,-192.195,-28.497,0.187,0.481,-0.006,-43,9.25,0,157
1784654682.651,1297,260992141,4.706,1.795,-8.452,-0.027,0.020,0.086,-192.200,-28.430,0.183,0.480,0.086,-42,9.25,0,158
1784654682.850,1298,261192140,4.706,1.841,-8.490,0.004,0.050,0.086,-192.238,-28.425,0.188,0.480,0.086,-42,9.50,0,159
1784654683.056,1299,261392141,4.702,1.829,-8.466,0.065,0.020,-0.006,-192.185,-28.479,0.186,0.479,-0.006,-42,9.50,0,160
1784654683.256,1300,261592140,4.699,1.834,-8.490,0.034,-0.011,-0.097,-192.157,-28.471,0.187,0.479,-0.097,-43,9.25,0,161
1784654683.451,1301,261792141,4.675,1.855,-8.476,-0.027,0.081,0.025,-192.219,-28.393,0.189,0.477,0.025,-42,9.25,0,162
1784654683.650,1302,261992140,4.706,1.846,-8.462,0.034,0.050,0.025,-192.231,-28.478,0.188,0.480,0.025,-43,9.25,0,163
1784654683.856,1303,262192143,4.704,1.894,-8.433,-0.179,-0.011,0.025,-192.283,-28.449,0.193,0.480,0.025,-42,9.50,0,164
1784654684.056,1304,262392141,4.759,1.829,-8.370,0.096,0.233,-0.128,-192.049,-28.439,0.186,0.485,-0.128,-42,9.25,0,165
1784654684.250,1305,262592142,4.840,1.819,-8.539,0.157,0.233,0.055,-192.219,-28.491,0.186,0.494,0.055,-42,9.75,0,166
1784654684.456,1306,262792140,4.673,1.824,-8.476,-0.057,-0.011,-0.067,-192.133,-28.472,0.186,0.477,-0.067,-42,9.25,0,167
1784654684.656,1307,262992141,4.911,1.976,-8.723,-0.057,0.538,-0.311,-192.231,-28.385,0.201,0.501,-0.311,-43,9.50,0,168
1784654684.856,1308,263192140,4.651,1.805,-8.462,0.126,-0.286,-0.006,-192.149,-28.577,0.184,0.474,-0.006,-43,9.25,0,169
1784654685.056,1309,263392141,4.678,1.853,-8.438,-0.118,0.172,-0.006,-192.251,-28.410,0.189,0.477,-0.006,-42,9.75,0,170
1784654685.256,1310,263592142,4.551,1.744,-8.555,-0.149,-0.377,0.269,-192.143,-28.254,0.178,0.464,0.269,-42,9.50,0,171
1784654685.456,1311,263792142,4.494,1.889,-8.404,-0.179,-0.255,0.025,-192.360,-28.292,0.193,0.458,0.025,-42,9.25,0,172
1784654685.656,1312,263992140,4.632,1.817,-8.457,-0.118,-0.102,-0.097,-192.273,-28.465,0.185,0.472,-0.097,-42,9.50,0,173
1784654685.850,1313,264192142,4.702,1.831,-8.466,0.065,0.111,0.055,-192.153,-28.409,0.187,0.479,0.055,-43,9.50,0,174
1784654686.056,1314,264392140,4.690,1.836,-8.483,0.096,-0.041,-0.097,-192.227,-28.457,0.187,0.478,-0.097,-43,10.00,0,175
1784654686.256,1315,264592141,4.697,1.858,-8.517,-0.118,-0.041,0.055,-192.270,-28.419,0.189,0.479,0.055,-42,9.75,0,176
1784654686.456,1316,264792140,4.706,1.824,-8.476,0.096,-0.072,-0.036,-192.159,-28.471,0.186,0.480,-0.036,-43,9.00,0,177
1784654686.656,1317,264992141,4.721,1.836,-8.483,0.065,0.081,-0.036,-192.204,-28.383,0.187,0.481,-0.036,-42,9.25,0,178
1784654686.856,1318,265192141,4.666,1.870,-8.517,-0.332,-0.102,0.117,-192.326,-28.464,0.191,0.476,0.117,-42,9.75,0,179
1784654687.056,1319,265392143,4.780,1.875,-8.483,-0.057,-0.041,0.117,-192.349,-28.474,0.191,0.487,0.117,-42,9.50,0,180
1784654687.256,1320,265592140,4.673,1.853,-8.507,0.126,-0.072,-0.158,-192.195,-28.422,0.189,0.477,-0.158,-43,9.50,0,181
1784654687.456,1321,265792141,4.709,1.807,-8.464,-0.088,0.081,-0.036,-192.175,-28.457,0.184,0.480,-0.036,-43,9.75,0,182
1784654687.651,1322,265992140,4.709,1.838,-8.498,0.004,0.020,0.117,-192.282,-28.415,0.187,0.480,0.117,-43,9.75,0,183
1784654687.856,1323,266192142,4.675,1.850,-8.522,-0.057,-0.072,-0.036,-192.195,-28.403,0.189,0.477,-0.036,-42,9.50,0,184
1784654688.056,1324,266392140,4.692,1.826,-8.500,-0.118,-0.072,0.025,-192.202,-28.411,0.186,0.478,0.025,-43,9.25,0,185
1784654688.256,1325,266592142,4.668,1.822,-8.471,0.126,0.020,-0.067,-192.229,-28.399,0.186,0.476,-0.067,-43,9.50,0,186
1784654688.451,1326,266792140,4.666,1.841,-8.488,-0.057,0.050,0.025,-192.165,-28.417,0.188,0.476,0.025,-43,9.50,0,187
1784654688.656,1327,266992141,4.723,1.822,-8.502,0.004,0.050,-0.067,-192.150,-28.382,0.186,0.482,-0.067,-43,10.50,0,188
1784654688.856,1328,267192140,4.673,1.841,-8.519,0.096,-0.133,-0.006,-192.214,-28.389,0.188,0.477,-0.006,-43,9.50,0,189
1784654689.056,1329,267392142,4.709,1.848,-8.500,0.034,0.020,-0.128,-192.141,-28.407,0.188,0.480,-0.128,-42,9.00,0,190
1784654689.256,1330,267592140,4.699,1.810,-8.502,-0.057,-0.102,0.055,-192.218,-28.425,0.185,0.479,0.055,-43,9.25,0,191
1784654689.451,1331,267792141,4.702,1.817,-8.495,-0.057,0.020,0.086,-192.241,-28.409,0.185,0.479,0.086,-42,9.75,0,192
1784654689.656,1332,267992140,4.702,1.863,-8.490,0.004,0.020,-0.036,-192.226,-28.411,0.190,0.479,-0.036,-42,9.50,0,193
1784654689.856,1333,268192142,4.716,1.834,-8.490,0.034,0.050,-0.036,-192.224,-28.437,0.187,0.481,-0.036,-43,9.25,0,194
1784654690.056,1334,268392141,4.694,1.882,-8.512,-0.057,0.081,-0.097,-192.225,-28.437,0.192,0.479,-0.097,-42,9.75,0,195
1784654690.256,1335,268592142,4.709,1.812,-8.471,-0.118,-0.011,-0.097,-192.232,-28.464,0.185,0.480,-0.097,-43,9.50,0,196
1784654690.451,1336,268792141,4.680,1.855,-8.522,0.004,0.081,0.025,-192.292,-28.326,0.189,0.477,0.025,-42,9.25,0,197
1784654690.651,1337,268992143,4.649,1.836,-8.505,0.126,-0.041,0.025,-192.234,-28.440,0.187,0.474,0.025,-42,9.00,0,198
1784654690.851,1338,269192141,4.685,1.814,-8.488,-0.057,0.050,0.117,-192.244,-28.454,0.185,0.478,0.117,-42,9.50,0,199
1784654691.056,1339,269392142,4.697,1.848,-8.490,-0.057,-0.011,-0.006,-192.287,-28.416,0.188,0.479,-0.006,-43,9.25,0,200
1784654691.256,1340,269592141,4.668,1.865,-8.498,0.034,0.050,-0.006,-192.268,-28.395,0.190,0.476,-0.006,-42,9.75,0,201
1784654691.451,1341,269792143,4.690,1.855,-8.527,-0.027,0.142,0.055,-192.279,-28.406,0.189,0.478,0.055,-43,9.25,0,202
1784654691.656,1342,269992141,4.697,1.831,-8.481,0.004,-0.011,-0.036,-192.253,-28.457,0.187,0.479,-0.036,-43,9.75,0,203
1784654691.851,1343,270192142,4.699,1.834,-8.466,-0.057,0.050,0.025,-192.254,-28.433,0.187,0.479,0.025,-42,9.50,0,204
1784654692.051,1344,270392142,4.699,1.872,-8.486,0.034,-0.011,0.055,-192.253,-28.430,0.191,0.479,0.055,-42,9.50,0,205
1784654692.256,1345,270592142,4.699,1.831,-8.452,-0.027,-0.011,0.086,-192.225,-28.469,0.187,0.479,0.086,-44,9.50,0,206
1784654692.456,1346,270792141,4.642,1.817,-8.481,-0.027,-0.225,0.025,-192.122,-28.437,0.185,0.473,0.025,-43,9.50,0,207
1784654692.656,1347,270992142,4.654,1.891,-8.502,-0.149,-0.011,0.269,-192.285,-28.372,0.193,0.475,0.269,-42,9.75,0,208
1784654692.856,1348,271192142,4.682,1.858,-8.514,0.004,0.050,-0.128,-192.312,-28.491,0.189,0.477,-0.128,-43,9.50,0,209
1784654693.056,1349,271392143,4.663,1.872,-8.500,-0.027,-0.041,0.025,-192.308,-28.391,0.191,0.476,0.025,-43,9.00,0,210
1784654693.251,1350,271592142,4.601,1.848,-8.536,-0.210,0.081,0.055,-192.277,-28.221,0.188,0.469,0.055,-42,9.50,0,211
1784654693.457,1351,271792143,4.675,1.848,-8.637,-0.149,-0.286,-0.250,-192.145,-28.661,0.188,0.477,-0.250,-43,9.25,0,212
1784654693.656,1352,271992141,4.775,1.877,-8.457,-0.027,0.294,-0.158,-192.195,-28.468,0.191,0.487,-0.158,-43,9.00,0,213
1784654693.851,1353,272192142,4.685,1.841,-8.466,-0.271,0.020,0.086,-192.384,-28.294,0.188,0.478,0.086,-43,9.00,0,214
1784654694.051,1354,272392141,4.702,1.904,-8.471,-0.027,0.020,0.086,-192.384,-28.455,0.194,0.479,0.086,-42,9.25,0,215
1784654694.256,1355,272592143,4.613,1.728,-8.529,-0.057,-0.347,0.208,-192.270,-28.463,0.176,0.470,0.208,-42,9.75,0,216
1784654694.451,1356,272792141,4.673,1.725,-8.517,0.126,-0.469,0.269,-192.386,-28.570,0.176,0.477,0.269,-43,9.25,0,217
1784654694.656,1357,272992142,4.630,1.822,-8.459,0.004,-0.072,-0.097,-192.228,-28.466,0.186,0.472,-0.097,-43,9.00,0,218
1784654694.851,1358,273192142,4.725,1.848,-8.481,0.034,-0.133,0.300,-192.434,-28.502,0.188,0.482,0.300,-43,10.00,0,219
1784654695.056,1359,273392142,4.682,1.819,-8.498,0.126,-0.102,-0.036,-192.210,-28.419,0.186,0.477,-0.036,-43,9.50,0,220
1784654695.256,1360,273592142,4.744,1.817,-8.445,-0.057,-0.133,0.208,-192.421,-28.566,0.185,0.484,0.208,-43,9.50,0,221
1784654695.456,1361,273792143,4.675,1.843,-8.498,0.004,0.172,-0.067,-192.253,-28.329,0.188,0.477,-0.067,-43,9.50,0,222
1784654695.651,1362,273992141,4.675,1.887,-8.476,0.065,-0.102,0.086,-192.419,-28.438,0.192,0.477,0.086,-42,9.75,0,223
1784654695.857,1363,274192142,4.728,1.778,-8.483,-0.057,-0.072,0.086,-192.204,-28.492,0.181,0.482,0.086,-42,9.50,0,224
1784654696.057,1364,274392141,4.711,1.788,-8.469,0.218,0.172,-0.341,-192.110,-28.416,0.182,0.480,-0.341,-43,9.50,0,225
1784654696.256,1365,274592143,4.780,1.858,-8.418,-0.210,-0.102,0.269,-192.309,-28.489,0.189,0.487,0.269,-42,9.25,0,226
1784654696.457,1366,274792141,4.859,1.877,-8.421,-0.271,0.477,-0.067,-192.197,-28.331,0.191,0.495,-0.067,-43,10.00,0,227
1784654696.651,1367,274992143,4.759,1.976,-8.450,-0.576,0.081,0.544,-192.824,-28.436,0.201,0.485,0.544,-42,9.75,0,228
1784654696.856,1368,275192142,4.764,1.793,-8.642,0.767,0.477,-0.189,-192.281,-28.145,0.183,0.486,-0.189,-42,9.50,0,229
1784654697.057,1369,275392143,4.759,1.942,-8.123,-0.027,-0.163,-0.250,-192.325,-28.832,0.198,0.485,-0.250,-43,9.50,0,230
1784654697.256,1370,275592141,4.916,1.901,-8.315,-0.454,-0.530,0.391,-192.499,-28.293,0.194,0.501,0.391,-43,9.50,0,231
1784654697.457,1371,275792143,4.885,1.916,-8.399,0.004,0.355,-0.311,-192.217,-28.298,0.195,0.498,-0.311,-43,9.50,0,232
1784654697.657,1372,275992142,4.790,1.824,-8.438,-0.118,0.050,-0.006,-192.242,-28.364,0.186,0.488,-0.006,-43,9.25,0,233
1784654697.857,1373,276192142,4.709,1.836,-8.476,-0.271,0.142,-0.036,-192.320,-28.264,0.187,0.480,-0.036,-43,9.25,0,234
1784654698.051,1374,276392141,4.630,1.858,-8.519,0.004,-0.041,0.178,-192.287,-28.367,0.189,0.472,0.178,-43,9.50,0,235
1784654698.251,1375,276592142,4.647,1.863,-8.510,-0.088,0.020,0.025,-192.228,-28.478,0.190,0.474,0.025,-42,9.50,0,236
1784654698.456,1376,276792142,4.694,1.875,-8.466,0.065,0.020,-0.036,-192.309,-28.508,0.191,0.479,-0.036,-43,9.50,0,237
1784654698.657,1377,276992142,4.613,1.908,-8.435,-0.057,-0.499,-0.036,-192.351,-28.376,0.195,0.470,-0.036,-42,9.50,0,238
1784654698.857,1378,277192141,4.671,1.906,-8.464,-0.027,-0.194,-0.128,-192.360,-28.478,0.194,0.476,-0.128,-43,9.25,0,239
1784654699.056,1379,277392142,4.742,1.790,-8.490,-0.118,0.142,-0.067,-192.266,-28.416,0.183,0.484,-0.067,-43,9.25,0,240
1784654699.251,1380,277592141,4.671,1.860,-8.512,-0.057,0.020,0.055,-192.245,-28.394,0.190,0.476,0.055,-43,9.75,0,241
1784654699.457,1381,277792142,4.666,1.855,-8.490,0.126,-0.041,-0.006,-192.285,-28.478,0.189,0.476,-0.006,-42,9.75,0,242
1784654699.657,1382,277992142,4.752,1.899,-8.428,-0.027,0.111,-0.067,-192.375,-28.423,0.194,0.485,-0.067,-43,9.50,0,243
1784654699.851,1383,278192143,4.690,1.785,-8.476,-0.057,0.050,0.025,-192.288,-28.339,0.182,0.478,0.025,-42,9.75,0,244
1784654700.051,1384,278392142,4.687,1.877,-8.512,-0.027,0.081,0.025,-192.231,-28.368,0.191,0.478,0.025,-42,9.50,0,245
1784654700.256,1385,278592143,4.682,1.853,-8.481,0.065,0.081,-0.097,-192.260,-28.452,0.189,0.477,-0.097,-43,9.50,0,246
1784654700.456,1386,278792141,4.704,1.819,-8.498,0.004,0.142,-0.067,-192.274,-28.429,0.186,0.480,-0.067,-42,10.00,0,247
1784654700.656,1387,278992142,4.713,1.836,-8.476,-0.118,-0.072,0.055,-192.326,-28.442,0.187,0.481,0.055,-42,9.50,0,248
1784654700.857,1388,279192142,4.697,1.870,-8.481,0.034,-0.011,-0.036,-192.279,-28.447,0.191,0.479,-0.036,-43,10.00,0,249
1784654701.051,1389,279392143,4.730,1.858,-8.481,-0.027,0.050,0.025,-192.311,-28.413,0.189,0.482,0.025,-42,10.00,0,250
1784654701.256,1390,279592142,4.692,1.872,-8.474,-0.057,-0.041,0.117,-192.338,-28.459,0.191,0.478,0.117,-43,9.50,0,251
1784654701.451,1391,279792143,4.742,1.795,-8.582,-0.057,0.233,0.086,-192.262,-28.458,0.183,0.484,0.086,-42,9.50,0,252
1784654701.651,1392,279992141,4.694,1.853,-8.474,0.034,-0.011,0.086,-192.258,-28.462,0.189,0.479,0.086,-43,9.25,0,253
1784654701.856,1393,280192142,4.656,1.814,-8.512,-0.027,-0.163,0.117,-192.270,-28.445,0.185,0.475,0.117,-43,9.50,0,254
1784654702.056,1394,280392142,4.671,1.814,-8.522,0.126,0.081,-0.128,-192.256,-28.459,0.185,0.476,-0.128,-42,9.50,0,255
1784654702.251,1395,280592143,4.659,1.860,-8.466,0.004,-0.011,0.208,-192.352,-28.449,0.190,0.475,0.208,-43,9.00,0,256
1784654702.457,1396,280792142,4.704,1.850,-8.447,-0.057,-0.072,0.117,-192.270,-28.505,0.189,0.480,0.117,-43,9.50,0,257
1784654702.657,1397,280992142,4.678,1.920,-8.527,-0.118,0.142,-0.067,-192.183,-28.366,0.196,0.477,-0.067,-42,10.00,0,258
1784654702.851,1398,281192141,4.685,1.877,-8.505,0.096,-0.041,0.422,-192.314,-28.749,0.191,0.478,0.422,-42,9.75,0,259
1784654703.052,1399,281392142,4.723,1.810,-8.522,0.157,-0.072,0.269,-192.371,-28.578,0.185,0.482,0.269,-43,9.50,0,260
1784654703.252,1400,281592141,4.642,1.778,-8.555,0.065,-0.163,0.086,-192.218,-28.519,0.181,0.473,0.086,-45,9.50,0,261
1784654703.451,1401,281792143,4.699,1.802,-8.478,-0.118,0.050,0.086,-192.259,-28.484,0.184,0.479,0.086,-45,10.00,0,262
1784654703.657,1402,281992142,4.842,1.841,-8.464,0.034,0.355,-0.311,-192.371,-28.524,0.188,0.494,-0.311,-46,10.00,0,263
1784654703.856,1403,282192142,4.709,1.785,-8.551,0.034,0.172,-0.128,-192.349,-28.333,0.182,0.480,-0.128,-46,9.75,0,264
1784654704.057,1404,282392141,4.604,2.072,-8.450,-0.118,0.264,-0.036,-192.517,-28.168,0.211,0.469,-0.036,-45,10.00,0,265
1784654704.257,1405,282592142,4.601,1.853,-8.536,-0.027,-0.041,-0.067,-192.283,-28.416,0.189,0.469,-0.067,-45,10.25,0,266
1784654704.457,1406,282792142,4.678,1.788,-8.514,-0.027,-0.163,0.269,-192.311,-28.515,0.182,0.477,0.269,-45,9.75,0,267
1784654704.657,1407,282992142,4.682,1.899,-8.476,0.126,-0.041,-0.067,-192.415,-28.532,0.194,0.477,-0.067,-46,10.00,0,268
1784654704.857,1408,283192142,4.713,1.863,-8.462,-0.057,0.233,-0.128,-192.143,-28.341,0.190,0.481,-0.128,-45,9.75,0,269
1784654705.057,1409,283392142,4.713,2.007,-8.375,0.065,0.081,-0.006,-192.393,-28.466,0.205,0.481,-0.006,-45,9.75,0,270
1784654705.257,1410,283592142,4.680,1.850,-8.527,-0.088,-0.163,-0.006,-192.358,-28.403,0.189,0.477,-0.006,-45,9.50,0,271
1784654705.451,1411,283792143,4.725,1.706,-8.450,0.004,0.447,0.025,-192.159,-28.470,0.174,0.482,0.025,-45,10.00,0,272
1784654705.651,1412,283992141,4.642,1.920,-8.551,0.065,-0.072,0.055,-192.402,-28.348,0.196,0.473,0.055,-45,9.75,0,273
1784654705.857,1413,284192142,4.682,1.761,-8.452,0.126,-0.286,-0.219,-192.100,-28.438,0.180,0.477,-0.219,-45,10.00,0,274
1784654706.057,1414,284392141,4.740,1.812,-8.510,-0.271,-0.011,0.208,-192.472,-28.360,0.185,0.483,0.208,-45,9.75,0,275
1784654706.257,1415,284592142,4.704,1.932,-8.476,0.004,-0.041,-0.067,-192.446,-28.451,0.197,0.480,-0.067,-46,10.25,0,276
1784654706.457,1416,284792142,4.604,1.887,-8.483,-0.271,-0.072,0.086,-192.368,-28.232,0.192,0.469,0.086,-46,9.75,0,277
1784654706.657,1417,284992142,4.728,1.812,-8.529,0.157,0.020,-0.189,-192.242,-28.572,0.185,0.482,-0.189,-45,10.00,0,278
1784654706.857,1418,285192141,4.272,1.937,-8.603,-0.240,-0.499,0.635,-192.293,-28.278,0.198,0.436,0.635,-45,9.75,0,279
1784654707.052,1419,285392142,4.640,1.846,-8.546,0.004,-0.163,0.269,-192.441,-28.657,0.188,0.473,0.269,-45,9.75,0,280
1784654707.257,1420,285592141,4.609,1.805,-8.483,0.096,0.111,-0.280,-192.179,-28.439,0.184,0.470,-0.280,-44,10.00,0,281
1784654707.457,1421,285792142,4.809,2.075,-8.394,-0.423,-0.041,0.086,-192.654,-28.651,0.212,0.490,0.086,-44,10.00,0,282
1784654707.657,1422,285992142,4.849,1.810,-8.433,-0.179,-0.102,0.117,-192.395,-28.540,0.185,0.494,0.117,-43,9.50,0,283
1784654707.857,1423,286192143,4.699,1.899,-8.464,0.126,0.233,-0.311,-192.259,-28.380,0.194,0.479,-0.311,-43,9.50,0,284
1784654708.057,1424,286392141,4.709,1.679,-8.531,0.370,0.172,-0.219,-192.005,-28.461,0.171,0.480,-0.219,-43,9.75,0,285
1784654708.257,1425,286592143,4.542,1.814,-8.495,0.034,-0.286,-0.067,-192.282,-28.211,0.185,0.463,-0.067,-43,9.75,0,286
1784654708.457,1426,286792141,4.508,1.870,-8.514,0.034,-0.133,-0.158,-191.992,-28.212,0.191,0.460,-0.158,-44,10.25,0,287
1784654708.651,1427,286992142,4.702,1.877,-8.474,0.004,-0.133,0.055,-192.255,-28.430,0.191,0.479,0.055,-43,9.25,0,288
1784654708.857,1428,287192141,4.485,1.961,-8.248,-1.217,0.325,-0.341,-191.996,-28.229,0.200,0.457,-0.341,-44,9.50,0,289
1784654709.057,1429,287392143,4.713,1.875,-8.546,-0.332,0.294,-0.036,-192.364,-28.270,0.191,0.481,-0.036,-43,9.50,0,290
1784654709.257,1430,287592141,4.833,1.711,-8.594,0.614,0.538,-0.555,-191.880,-28.244,0.174,0.493,-0.555,-42,9.50,0,291
1784654709.451,1431,287792143,4.554,1.665,-8.582,0.004,-0.316,0.086,-192.347,-28.420,0.170,0.464,0.086,-43,9.00,0,292
1784654709.657,1432,287992141,4.694,1.752,-8.488,-0.057,-0.041,-0.006,-192.239,-28.440,0.179,0.479,-0.006,-43,9.25,0,293
1784654709.857,1433,288192143,4.682,1.826,-8.493,0.065,0.081,-0.097,-192.200,-28.359,0.186,0.477,-0.097,-43,9.25,0,294
1784654710.057,1434,288392141,4.711,1.928,-8.599,-0.027,0.203,-0.097,-192.222,-28.491,0.197,0.480,-0.097,-43,9.25,0,295
1784654710.257,1435,288592143,4.649,1.742,-8.445,-0.271,-0.072,0.208,-192.266,-28.434,0.178,0.474,0.208,-43,9.75,0,296
1784654710.451,1436,288792141,4.685,1.817,-8.529,0.065,0.020,0.055,-192.262,-28.338,0.185,0.478,0.055,-43,9.50,0,297
1784654710.657,1437,288992143,4.680,1.826,-8.517,0.004,0.020,-0.036,-192.311,-28.363,0.186,0.477,-0.036,-43,9.25,0,298
1784654710.857,1438,289192141,4.687,1.904,-8.539,0.004,0.050,-0.036,-192.269,-28.397,0.194,0.478,-0.036,-43,9.50,0,299
1784654711.052,1439,289392143,4.678,1.853,-8.495,-0.057,0.020,0.025,-192.237,-28.411,0.189,0.477,0.025,-43,9.50,0,300
1784654711.251,1440,289592142,4.680,1.829,-8.490,0.004,0.050,0.055,-192.261,-28.416,0.186,0.477,0.055,-43,9.00,0,301
1784654711.457,1441,289792142,4.706,1.860,-8.476,-0.088,-0.041,0.055,-192.256,-28.410,0.190,0.480,0.055,-43,9.50,0,302
1784654711.651,1442,289992141,4.718,1.838,-8.498,0.034,0.020,0.025,-192.204,-28.357,0.187,0.481,0.025,-43,9.50,0,303
1784654711.857,1443,290192142,4.690,1.865,-8.488,-0.027,-0.041,-0.006,-192.230,-28.410,0.190,0.478,-0.006,-43,9.50,0,304
1784654712.057,1444,290392141,4.685,1.771,-8.505,-0.057,-0.041,0.147,-192.210,-28.424,0.181,0.478,0.147,-43,9.75,0,305
1784654712.252,1445,290592143,4.747,1.829,-8.517,-0.027,0.142,0.025,-192.236,-28.361,0.186,0.484,0.025,-42,9.50,0,306
1784654712.452,1446,290792142,4.711,1.860,-8.500,-0.088,0.050,0.178,-192.271,-28.354,0.190,0.480,0.178,-43,10.00,0,307
1784654712.657,1447,290992143,4.697,1.838,-8.505,0.004,-0.041,-0.006,-192.199,-28.391,0.187,0.479,-0.006,-43,9.50,0,308
1784654712.852,1448,291192141,4.704,1.819,-8.517,-0.057,0.050,0.025,-192.181,-28.399,0.186,0.480,0.025,-42,9.50,0,309
1784654713.052,1449,291392143,4.690,1.800,-8.486,0.034,-0.072,0.025,-192.196,-28.378,0.184,0.478,0.025,-42,9.75,0,310
1784654713.257,1450,291592141,4.709,1.829,-8.507,0.004,0.081,-0.006,-192.222,-28.446,0.186,0.480,-0.006,-43,9.50,0,311
1784654713.457,1451,291792142,4.692,1.853,-8.483,0.034,0.020,-0.036,-192.235,-28.384,0.189,0.478,-0.036,-43,9.50,0,312
1784654713.651,1452,291992141,4.694,1.841,-8.481,0.034,0.050,0.086,-192.231,-28.370,0.188,0.479,0.086,-43,9.50,0,313
1784654713.852,1453,292192142,4.690,1.836,-8.490,-0.088,0.050,0.025,-192.231,-28.407,0.187,0.478,0.025,-43,9.50,0,314
1784654714.057,1454,292392142,4.692,1.846,-8.512,-0.027,-0.011,0.025,-192.239,-28.429,0.188,0.478,0.025,-42,9.75,0,315
1784654714.252,1455,292592142,4.692,1.831,-8.478,0.126,0.020,0.025,-192.229,-28.428,0.187,0.478,0.025,-43,9.50,0,316
1784654714.457,1456,292792141,4.706,1.853,-8.510,-0.027,-0.011,0.025,-192.263,-28.408,0.189,0.480,0.025,-43,9.50,0,317
1784654714.657,1457,292992143,4.711,1.846,-8.502,0.004,0.020,-0.006,-192.254,-28.445,0.188,0.480,-0.006,-43,9.50,0,318
1784654714.852,1458,293192142,4.697,1.843,-8.466,-0.088,0.081,0.025,-192.255,-28.425,0.188,0.479,0.025,-42,9.50,0,319
1784654715.052,1459,293392143,4.694,1.829,-8.483,-0.057,0.020,0.055,-192.236,-28.400,0.186,0.479,0.055,-43,9.00,0,320
1784654715.257,1460,293592142,4.685,1.846,-8.493,-0.057,0.081,-0.067,-192.238,-28.410,0.188,0.478,-0.067,-44,9.25,0,321
1784654715.452,1461,293792142,4.687,1.848,-8.490,0.096,0.081,0.025,-192.244,-28.407,0.188,0.478,0.025,-43,9.50,0,322
1784654715.657,1462,293992141,4.687,1.834,-8.478,0.034,-0.011,-0.036,-192.220,-28.452,0.187,0.478,-0.036,-43,10.00,0,323
1784654715.857,1463,294192142,4.680,1.817,-8.510,-0.027,-0.011,0.178,-192.303,-28.407,0.185,0.477,0.178,-43,9.75,0,324
1784654716.057,1464,294392142,4.668,1.870,-8.474,0.157,0.020,-0.158,-192.242,-28.508,0.191,0.476,-0.158,-43,9.75,0,325
1784654716.252,1465,294592142,4.699,1.855,-8.539,0.034,0.020,0.025,-192.217,-28.451,0.189,0.479,0.025,-43,9.50,0,326
1784654716.452,1466,294792142,4.706,1.824,-8.478,0.065,0.020,0.025,-192.221,-28.427,0.186,0.480,0.025,-43,9.50,0,327
1784654716.657,1467,294992143,4.697,1.848,-8.498,-0.027,-0.011,0.055,-192.259,-28.450,0.188,0.479,0.055,-43,9.00,0,328
1784654716.857,1468,295192141,4.692,1.831,-8.486,0.096,-0.011,-0.006,-192.180,-28.470,0.187,0.478,-0.006,-43,9.50,0,329
1784654717.057,1469,295392142,4.699,1.834,-8.459,-0.027,0.020,-0.036,-192.244,-28.414,0.187,0.479,-0.036,-43,9.50,0,330
1784654717.257,1470,295592142,4.694,1.793,-8.471,-0.088,-0.011,0.086,-192.218,-28.396,0.183,0.479,0.086,-43,9.75,0,331
1784654717.452,1471,295792143,4.692,1.829,-8.483,-0.118,0.050,0.117,-192.337,-28.399,0.186,0.478,0.117,-43,9.25,0,332
1784654717.652,1472,295992141,4.692,1.831,-8.469,0.126,0.020,0.055,-192.253,-28.445,0.187,0.478,0.055,-43,9.50,0,333
1784654717.858,1473,296192142,4.694,1.826,-8.469,-0.027,-0.011,-0.067,-192.240,-28.449,0.186,0.479,-0.067,-43,9.75,0,334
1784654718.057,1474,296392141,4.685,1.858,-8.493,0.004,0.050,-0.128,-192.264,-28.422,0.189,0.478,-0.128,-43,9.75,0,335
1784654718.257,1475,296592143,4.694,1.848,-8.474,0.096,0.050,-0.067,-192.208,-28.464,0.188,0.479,-0.067,-43,9.50,0,336
1784654718.457,1476,296792141,4.711,1.826,-8.450,-0.027,0.081,-0.006,-192.248,-28.463,0.186,0.480,-0.006,-43,9.50,0,337
1784654718.657,1477,296992143,4.692,1.858,-8.476,-0.027,0.020,-0.036,-192.209,-28.417,0.189,0.478,-0.036,-43,9.25,0,338
1784654718.852,1478,297192141,4.666,1.824,-8.452,-0.088,0.111,0.025,-192.251,-28.426,0.186,0.476,0.025,-43,9.25,0,339
1784654719.057,1479,297392142,4.692,1.831,-8.476,0.126,0.142,-0.067,-192.147,-28.463,0.187,0.478,-0.067,-43,9.25,0,340
1784654719.252,1480,297592142,4.697,1.790,-8.505,0.004,-0.011,0.025,-192.204,-28.460,0.183,0.479,0.025,-43,9.25,0,341
1784654719.457,1481,297792143,4.697,1.848,-8.495,-0.027,0.020,-0.006,-192.226,-28.450,0.188,0.479,-0.006,-43,9.75,0,342
1784654719.652,1482,297992141,4.699,1.831,-8.474,-0.088,0.050,0.025,-192.228,-28.467,0.187,0.479,0.025,-42,9.25,0,343
1784654719.857,1483,298192142,4.680,1.834,-8.459,-0.027,0.020,-0.006,-192.211,-28.435,0.187,0.477,-0.006,-43,9.25,0,344
1784654720.052,1484,298392141,4.699,1.834,-8.488,0.034,0.020,0.055,-192.201,-28.457,0.187,0.479,0.055,-43,9.00,0,345
1784654720.252,1485,298592142,4.702,1.846,-8.493,-0.118,0.050,0.025,-192.162,-28.438,0.188,0.479,0.025,-42,9.75,0,346
1784654720.457,1486,298792141,4.702,1.822,-8.486,0.065,0.050,-0.036,-192.178,-28.424,0.186,0.479,-0.036,-43,9.50,0,347
1784654720.657,1487,298992143,4.704,1.812,-8.488,-0.027,0.020,-0.006,-192.191,-28.462,0.185,0.480,-0.006,-43,9.25,0,348
1784654720.857,1488,299192141,4.702,1.848,-8.510,-0.057,-0.011,0.055,-192.189,-28.443,0.188,0.479,0.055,-43,9.75,0,349
1784654721.057,1489,299392142,4.673,1.824,-8.486,0.126,0.020,-0.067,-192.176,-28.469,0.186,0.477,-0.067,-42,9.50,0,350
1784654721.252,1490,299592142,4.692,1.819,-8.457,-0.057,0.020,0.178,-192.196,-28.462,0.186,0.478,0.178,-43,9.25,0,351
1784654721.452,1491,299792142,4.690,1.826,-8.469,-0.027,0.020,0.055,-192.224,-28.489,0.186,0.478,0.055,-43,9.25,0,352
1784654721.658,1492,299992142,4.682,1.846,-8.481,-0.057,-0.072,-0.006,-192.211,-28.465,0.188,0.477,-0.006,-43,9.75,0,353
1784654721.857,1493,300192143,4.694,1.836,-8.483,0.065,0.020,-0.036,-192.227,-28.456,0.187,0.479,-0.036,-43,9.50,0,354
1784654722.058,1494,300392141,4.709,1.850,-8.488,-0.027,-0.041,-0.006,-192.240,-28.468,0.189,0.480,-0.006,-43,9.75,0,355
1784654722.258,1495,300592143,4.687,1.834,-8.481,-0.027,-0.011,-0.067,-192.218,-28.441,0.187,0.478,-0.067,-43,9.25,0,356
1784654722.452,1496,300792142,4.687,1.822,-8.500,0.004,0.020,0.055,-192.187,-28.430,0.186,0.478,0.055,-43,9.75,0,357
1784654722.657,1497,300992142,4.709,1.810,-8.483,-0.149,-0.011,0.025,-192.207,-28.482,0.185,0.480,0.025,-43,9.50,0,358
1784654722.858,1498,301192141,4.694,1.807,-8.493,-0.057,-0.011,-0.006,-192.213,-28.418,0.184,0.479,-0.006,-42,9.50,0,359
1784654723.057,1499,301392142,4.685,1.850,-8.502,-0.027,-0.011,0.025,-192.238,-28.449,0.189,0.478,0.025,-43,9.50,0,360
1784654723.252,1500,301592141,4.711,1.836,-8.476,-0.088,0.050,0.147,-192.297,-28.444,0.187,0.480,0.147,-43,9.50,0,361
1784654723.452,1501,301792142,4.682,1.858,-8.469,-0.057,0.050,0.178,-192.312,-28.437,0.189,0.477,0.178,-43,9.50,0,362
1784654723.652,1502,301992142,4.706,1.855,-8.478,-0.088,0.050,0.086,-192.230,-28.434,0.189,0.480,0.086,-43,9.00,0,363
1784654723.857,1503,302192143,4.704,1.805,-8.483,-0.027,-0.011,0.147,-192.273,-28.466,0.184,0.480,0.147,-43,9.50,0,364
1784654724.052,1504,302392141,4.682,1.836,-8.481,-0.088,0.050,0.025,-192.252,-28.424,0.187,0.477,0.025,-42,9.25,0,365
1784654724.257,1505,302592143,4.685,1.855,-8.493,-0.088,-0.011,0.055,-192.218,-28.505,0.189,0.478,0.055,-42,9.25,0,366
1784654724.452,1506,302792141,4.735,1.829,-8.457,-0.027,0.020,0.055,-192.221,-28.481,0.186,0.483,0.055,-43,9.25,0,367
1784654724.657,1507,302992142,4.706,1.848,-8.507,-0.027,0.050,-0.006,-192.240,-28.438,0.188,0.480,-0.006,-43,9.75,0,368
1784654724.857,1508,303192141,4.704,1.865,-8.476,0.126,0.050,-0.158,-192.179,-28.460,0.190,0.480,-0.158,-42,9.50,0,369
1784654725.057,1509,303392143,4.697,1.819,-8.457,0.004,0.020,-0.006,-192.188,-28.480,0.186,0.479,-0.006,-43,9.25,0,370
1784654725.252,1510,303592142,4.694,1.829,-8.517,-0.088,0.111,0.025,-192.228,-28.421,0.186,0.479,0.025,-42,9.00,0,371
1784654725.458,1511,303792142,4.680,1.855,-8.469,0.034,-0.011,-0.067,-192.220,-28.477,0.189,0.477,-0.067,-43,9.50,0,372
1784654725.652,1512,303992141,4.697,1.814,-8.481,0.004,-0.133,0.055,-192.196,-28.474,0.185,0.479,0.055,-43,9.75,0,373
1784654725.852,1513,304192142,4.697,1.822,-8.476,0.004,0.020,0.055,-192.241,-28.462,0.186,0.479,0.055,-43,9.25,0,374
1784654726.057,1514,304392142,4.704,1.850,-8.481,-0.057,0.050,-0.006,-192.230,-28.471,0.189,0.480,-0.006,-42,9.50,0,375
1784654726.258,1515,304592143,4.711,1.822,-8.481,-0.118,0.020,-0.006,-192.186,-28.510,0.186,0.480,-0.006,-43,9.75,0,376
1784654726.457,1516,304792141,4.699,1.824,-8.490,-0.057,0.081,-0.006,-192.171,-28.457,0.186,0.479,-0.006,-42,9.75,0,377
1784654726.657,1517,304992142,4.680,1.875,-8.483,0.096,0.142,-0.006,-192.226,-28.404,0.191,0.477,-0.006,-43,9.25,0,378
1784654726.852,1518,305192142,4.706,1.846,-8.500,0.065,-0.011,0.025,-192.171,-28.482,0.188,0.480,0.025,-42,9.75,0,379
1784654727.058,1519,305392142,4.699,1.802,-8.488,-0.027,-0.011,-0.067,-192.128,-28.486,0.184,0.479,-0.067,-43,9.50,0,380
1784654727.252,1520,305592141,4.699,1.846,-8.505,-0.118,0.020,0.086,-192.299,-28.438,0.188,0.479,0.086,-43,9.25,0,381
1784654727.458,1521,305792143,4.656,1.918,-8.486,0.279,-0.041,-0.250,-192.206,-28.458,0.196,0.475,-0.250,-43,9.50,0,382
1784654727.658,1522,305992141,4.728,1.824,-8.469,0.157,-0.102,-0.219,-192.044,-28.569,0.186,0.482,-0.219,-43,9.25,0,383
1784654727.852,1523,306192142,4.709,1.788,-8.457,-0.149,0.020,0.300,-192.309,-28.388,0.182,0.480,0.300,-43,9.50,0,384
1784654728.057,1524,306392142,4.680,1.865,-8.478,-0.118,-0.011,0.055,-192.302,-28.452,0.190,0.477,0.055,-43,9.25,0,385
1784654728.252,1525,306592143,4.709,1.855,-8.457,-0.210,0.050,0.147,-192.269,-28.442,0.189,0.480,0.147,-43,9.50,0,386
1784654728.452,1526,306792141,4.721,1.884,-8.498,0.004,0.081,0.086,-192.305,-28.484,0.192,0.481,0.086,-42,9.25,0,387
1784654728.652,1527,306992142,4.713,1.834,-8.500,0.034,-0.072,0.025,-192.196,-28.470,0.187,0.481,0.025,-42,9.00,0,388
1784654728.858,1528,307192142,4.725,1.855,-8.488,0.065,-0.072,-0.067,-192.090,-28.488,0.189,0.482,-0.067,-43,9.25,0,389
1784654729.057,1529,307392142,4.694,1.802,-8.457,0.034,0.172,-0.006,-192.177,-28.463,0.184,0.479,-0.006,-43,9.75,0,390
1784654729.252,1530,307592141,4.671,1.865,-8.500,-0.027,0.172,0.086,-192.308,-28.362,0.190,0.476,0.086,-43,9.25,0,391
1784654729.458,1531,307792142,4.671,1.889,-8.495,0.034,-0.011,-0.006,-192.188,-28.444,0.193,0.476,-0.006,-43,9.50,0,392
1784654729.652,1532,307992141,4.713,1.781,-8.469,-0.027,0.081,0.086,-192.158,-28.511,0.182,0.481,0.086,-43,9.75,0,393
1784654729.857,1533,308192142,4.699,1.819,-8.481,-0.118,-0.041,0.208,-192.303,-28.470,0.186,0.479,0.208,-42,9.00,0,394
1784654730.058,1534,308392141,4.656,1.848,-8.519,0.157,-0.072,-0.341,-192.155,-28.495,0.188,0.475,-0.341,-42,9.50,0,395
1784654730.258,1535,308592142,4.692,1.785,-8.454,0.065,-0.072,-0.128,-192.119,-28.519,0.182,0.478,-0.128,-42,9.50,0,396
1784654730.458,1536,308792142,4.687,1.740,-8.471,-0.057,-0.133,0.147,-192.125,-28.504,0.177,0.478,0.147,-42,9.75,0,397
1784654730.652,1537,308992142,4.747,1.761,-8.502,-0.240,0.111,0.178,-192.317,-28.428,0.180,0.484,0.178,-42,10.00,0,398
1784654730.857,1538,309192141,4.697,1.947,-8.495,0.218,0.111,-0.067,-192.227,-28.453,0.199,0.479,-0.067,-42,9.50,0,399
1784654731.058,1539,309392142,4.697,1.797,-8.481,0.065,-0.011,-0.097,-192.095,-28.535,0.183,0.479,-0.097,-43,9.50,0,400
1784654731.252,1540,309592141,4.733,1.759,-8.478,-0.179,0.020,0.178,-192.165,-28.429,0.179,0.483,0.178,-42,9.75,0,401
1784654731.453,1541,309792142,4.697,1.841,-8.495,0.034,-0.011,0.025,-192.283,-28.426,0.188,0.479,0.025,-42,9.75,0,402
1784654731.658,1542,309992141,4.680,1.841,-8.478,0.096,-0.011,-0.067,-192.211,-28.486,0.188,0.477,-0.067,-43,9.75,0,403
1784654731.852,1543,310192142,4.678,1.810,-8.486,0.096,0.081,0.025,-192.193,-28.512,0.185,0.477,0.025,-43,9.25,0,404
1784654732.052,1544,310392141,4.692,1.853,-8.500,-0.057,0.020,0.117,-192.265,-28.413,0.189,0.478,0.117,-42,9.50,0,405
1784654732.258,1545,310592143,4.716,1.850,-8.450,-0.057,-0.102,-0.036,-192.180,-28.536,0.189,0.481,-0.036,-42,9.50,0,406
1784654732.458,1546,310792141,4.723,1.817,-8.457,0.157,0.142,-0.036,-192.149,-28.461,0.185,0.482,-0.036,-43,9.50,0,407
1784654732.652,1547,310992143,4.678,1.817,-8.512,-0.088,0.050,0.055,-192.203,-28.420,0.185,0.477,0.055,-42,9.75,0,408
1784654732.858,1548,311192141,4.718,1.826,-8.493,0.065,0.081,-0.158,-192.170,-28.451,0.186,0.481,-0.158,-42,9.75,0,409
1784654733.058,1549,311392142,4.704,1.865,-8.466,-0.057,-0.072,-0.006,-192.217,-28.548,0.190,0.480,-0.006,-42,9.75,0,410
1784654733.253,1550,311592142,4.711,1.858,-8.471,0.096,-0.041,0.086,-192.214,-28.493,0.189,0.480,0.086,-42,10.00,0,411
1784654733.452,1551,311792143,4.706,1.846,-8.462,-0.027,0.081,0.086,-192.221,-28.451,0.188,0.480,0.086,-42,10.00,0,412
1784654733.658,1552,311992141,4.706,1.834,-8.476,-0.057,-0.011,-0.067,-192.208,-28.466,0.187,0.480,-0.067,-42,9.75,0,413
1784654733.852,1553,312192142,4.675,1.793,-8.462,0.126,-0.011,0.117,-192.194,-28.445,0.183,0.477,0.117,-42,9.50,0,414
1784654734.058,1554,312392142,4.702,1.889,-8.466,-0.057,-0.011,-0.036,-192.279,-28.454,0.193,0.479,-0.036,-41,10.25,0,415
1784654734.258,1555,312592143,4.694,1.824,-8.474,0.065,-0.011,-0.006,-192.099,-28.501,0.186,0.479,-0.006,-42,9.75,0,416
1784654734.458,1556,312792141,4.690,1.807,-8.469,0.004,0.050,-0.006,-192.163,-28.456,0.184,0.478,-0.006,-42,9.25,0,417
1784654734.658,1557,312992142,4.709,1.817,-8.488,-0.057,-0.011,0.147,-192.191,-28.447,0.185,0.480,0.147,-42,10.25,0,418
1784654734.858,1558,313192142,4.682,1.810,-8.495,0.004,0.020,-0.067,-192.136,-28.469,0.185,0.477,-0.067,-42,9.50,0,419
1784654735.058,1559,313392143,4.711,1.834,-8.486,-0.088,0.081,-0.097,-192.176,-28.493,0.187,0.480,-0.097,-42,9.50,0,420
1784654735.252,1560,313592141,4.690,1.831,-8.469,0.034,-0.011,0.025,-192.162,-28.469,0.187,0.478,0.025,-42,9.50,0,421
1784654735.452,1561,313792142,4.694,1.817,-8.486,0.004,-0.011,0.025,-192.173,-28.468,0.185,0.479,0.025,-42,9.50,0,422
1784654735.652,1562,313992141,4.697,1.822,-8.454,0.034,0.111,0.055,-192.179,-28.486,0.186,0.479,0.055,-43,9.50,0,423
1784654735.858,1563,314192143,4.723,1.848,-8.459,-0.088,-0.041,0.055,-192.253,-28.488,0.188,0.482,0.055,-42,9.75,0,424
1784654736.053,1564,314392141,4.699,1.824,-8.476,0.034,-0.011,0.025,-192.191,-28.470,0.186,0.479,0.025,-42,9.75,0,425
1784654736.258,1565,314592142,4.711,1.807,-8.464,0.096,0.050,-0.036,-192.132,-28.478,0.184,0.480,-0.036,-42,10.00,0,426
1784654736.452,1566,314792141,4.697,1.790,-8.490,0.034,0.020,0.025,-192.142,-28.458,0.183,0.479,0.025,-42,9.75,0,427
1784654736.652,1567,314992142,4.697,1.819,-8.471,0.065,0.050,0.055,-192.161,-28.511,0.186,0.479,0.055,-42,9.75,0,428
1784654736.858,1568,315192141,4.675,1.785,-8.486,-0.118,-0.072,0.055,-192.112,-28.509,0.182,0.477,0.055,-42,9.75,0,429
1784654737.053,1569,315392143,4.678,1.843,-8.478,-0.088,0.142,0.025,-192.238,-28.450,0.188,0.477,0.025,-42,9.75,0,430
1784654737.252,1570,315592141,4.680,1.867,-8.474,0.126,0.050,0.025,-192.150,-28.479,0.190,0.477,0.025,-42,9.50,0,431
1784654737.452,1571,315792142,4.697,1.826,-8.510,0.004,0.050,0.025,-192.145,-28.530,0.186,0.479,0.025,-42,9.50,0,432
1784654737.652,1572,315992141,4.735,1.812,-8.464,0.004,0.081,0.055,-192.219,-28.500,0.185,0.483,0.055,-42,9.75,0,433
1784654737.858,1573,316192143,4.690,1.838,-8.476,-0.027,-0.011,-0.006,-192.234,-28.502,0.187,0.478,-0.006,-42,9.50,0,434
1784654738.058,1574,316392142,4.709,1.865,-8.481,0.065,-0.041,-0.128,-192.196,-28.477,0.190,0.480,-0.128,-42,10.00,0,435
1784654738.253,1575,316592142,4.692,1.841,-8.478,-0.057,0.081,0.086,-192.188,-28.442,0.188,0.478,0.086,-42,9.75,0,436
1784654738.458,1576,316792142,4.680,1.860,-8.490,-0.057,-0.102,0.025,-192.207,-28.482,0.190,0.477,0.025,-42,9.25,0,437
1784654738.658,1577,316992142,4.697,1.843,-8.490,0.034,0.081,-0.067,-192.198,-28.465,0.188,0.479,-0.067,-42,9.75,0,438
1784654738.853,1578,317192142,4.680,1.829,-8.490,-0.027,0.020,0.086,-192.239,-28.484,0.186,0.477,0.086,-42,9.50,0,439
1784654739.058,1579,317392143,4.733,1.877,-8.454,0.157,-0.011,-0.006,-192.223,-28.461,0.191,0.483,-0.006,-43,10.00,0,440
1784654739.253,1580,317592141,4.702,1.819,-8.464,0.004,-0.011,0.055,-192.207,-28.496,0.186,0.479,0.055,-43,9.75,0,441
1784654739.458,1581,317792142,4.704,1.824,-8.459,0.004,0.020,-0.006,-192.163,-28.466,0.186,0.480,-0.006,-42,9.50,0,442
1784654739.653,1582,317992141,4.711,1.797,-8.471,-0.027,0.081,0.086,-192.113,-28.479,0.183,0.480,0.086,-42,9.75,0,443
1784654739.853,1583,318192142,4.678,1.831,-8.495,0.034,-0.011,0.086,-192.217,-28.456,0.187,0.477,0.086,-42,10.00,0,444
1784654740.058,1584,318392142,4.709,1.843,-8.462,0.065,0.050,-0.097,-192.172,-28.482,0.188,0.480,-0.097,-42,10.50,0,445
1784654740.258,1585,318592143,4.711,1.826,-8.442,-0.149,-0.163,0.025,-192.223,-28.576,0.186,0.480,0.025,-42,9.75,0,446
1784654740.458,1586,318792141,4.702,1.863,-8.490,0.218,0.264,-0.006,-192.218,-28.313,0.190,0.479,-0.006,-42,10.00,0,447
1784654740.658,1587,318992142,4.632,1.906,-8.558,-0.210,-0.286,0.025,-192.264,-28.581,0.194,0.472,0.025,-42,9.75,0,448
1784654740.858,1588,319192141,4.723,1.822,-8.464,0.004,-0.011,-0.067,-192.213,-28.546,0.186,0.482,-0.067,-42,9.75,0,449
1784654741.058,1589,319392142,4.666,1.843,-8.529,0.218,0.203,-0.067,-192.168,-28.347,0.188,0.476,-0.067,-41,10.25,0,450
1784654741.258,1590,319592141,4.699,1.754,-8.478,-0.118,-0.347,-0.036,-192.071,-28.698,0.179,0.479,-0.036,-42,9.50,0,451
1784654741.453,1591,319792142,4.723,1.843,-8.457,0.126,0.081,0.025,-192.215,-28.423,0.188,0.482,0.025,-41,10.50,0,452
1784654741.658,1592,319992141,4.706,1.838,-8.488,0.126,-0.011,-0.189,-192.109,-28.551,0.187,0.480,-0.189,-42,9.75,0,453
1784654741.852,1593,320192142,4.737,1.802,-8.486,0.126,0.081,0.025,-192.169,-28.463,0.184,0.483,0.025,-42,9.75,0,454
1784654742.058,1594,320392141,4.697,1.877,-8.488,-0.057,-0.011,0.117,-192.327,-28.474,0.191,0.479,0.117,-42,10.00,0,455
1784654742.258,1595,320592142,4.673,1.836,-8.498,-0.088,-0.102,0.086,-192.219,-28.514,0.187,0.477,0.086,-42,10.00,0,456
1784654742.453,1596,320792141,4.733,1.863,-8.418,0.126,0.172,0.055,-192.183,-28.467,0.190,0.483,0.055,-41,10.25,0,457
1784654742.658,1597,320992142,4.687,1.841,-8.507,-0.118,-0.041,0.086,-192.233,-28.476,0.188,0.478,0.086,-42,10.00,0,458
1784654742.858,1598,321192141,4.728,1.834,-8.457,-0.118,-0.102,0.055,-192.201,-28.566,0.187,0.482,0.055,-41,9.75,0,459
1784654743.058,1599,321392143,4.694,1.810,-8.486,-0.118,-0.163,0.086,-192.336,-28.456,0.185,0.479,0.086,-41,10.00,0,460
1784654743.253,1600,321592141,4.704,1.870,-8.469,-0.118,0.172,0.239,-192.288,-28.378,0.191,0.480,0.239,-41,10.75,0,461
1784654743.458,1601,321792142,4.687,1.875,-8.500,0.034,0.020,-0.006,-192.250,-28.522,0.191,0.478,-0.006,-41,9.75,0,462
1784654743.658,1602,321992141,4.699,1.819,-8.483,-0.057,0.020,-0.097,-192.155,-28.468,0.186,0.479,-0.097,-42,7.25,0,463
1784654743.858,1603,322192142,4.668,1.732,-8.512,0.401,0.081,-0.555,-191.988,-28.449,0.177,0.476,-0.555,-42,9.75,0,464
1784654744.058,1604,322392142,4.926,1.742,-8.723,0.309,0.142,-0.128,-191.824,-28.741,0.178,0.502,-0.128,-42,10.00,0,465
1784654744.258,1605,322592142,4.747,1.790,-8.421,0.401,0.020,-0.341,-191.892,-28.406,0.183,0.484,-0.341,-41,9.75,0,466
1784654744.458,1606,322792141,4.702,1.703,-8.527,-0.118,-0.133,0.361,-192.292,-28.524,0.174,0.479,0.361,-41,10.00,0,467
1784654744.658,1607,322992142,4.742,1.838,-8.471,-0.149,-0.102,0.117,-192.323,-28.501,0.187,0.484,0.117,-42,9.75,0,468
1784654744.858,1608,323192141,4.711,1.867,-8.462,-0.179,-0.011,0.117,-192.334,-28.424,0.190,0.480,0.117,-41,10.00,0,469
1784654745.053,1609,323392142,4.702,1.838,-8.459,-0.027,0.020,0.025,-192.210,-28.457,0.187,0.479,0.025,-41,9.75,0,470
1784654745.258,1610,323592142,4.675,1.812,-8.488,-0.149,-0.041,0.147,-192.251,-28.494,0.185,0.477,0.147,-42,10.00,0,471
1784654745.458,1611,323792142,4.761,1.872,-8.442,-0.118,-0.072,0.055,-192.275,-28.599,0.191,0.486,0.055,-42,9.50,0,472
1784654745.658,1612,323992141,4.694,1.826,-8.476,0.126,0.172,-0.006,-192.122,-28.364,0.186,0.479,-0.006,-42,10.25,0,473
1784654745.858,1613,324192142,4.685,1.824,-8.471,0.004,-0.102,-0.097,-192.149,-28.514,0.186,0.478,-0.097,-42,9.75,0,474
1784654746.058,1614,324392142,4.740,1.742,-8.445,0.157,0.020,-0.128,-192.105,-28.508,0.178,0.483,-0.128,-42,9.50,0,475
1784654746.258,1615,324592142,4.659,1.867,-8.476,0.065,0.050,-0.128,-192.091,-28.459,0.190,0.475,-0.128,-42,10.00,0,476
1784654746.458,1616,324792142,4.735,1.718,-8.462,0.157,-0.072,-0.036,-192.078,-28.491,0.175,0.483,-0.036,-41,10.25,0,477
1784654746.653,1617,324992143,4.661,1.848,-8.433,-0.332,0.264,0.239,-192.412,-28.392,0.188,0.475,0.239,-41,10.00,0,478
1784654746.858,1618,325192142,4.699,1.894,-8.534,-0.027,0.172,-0.097,-192.185,-28.453,0.193,0.479,-0.097,-42,10.00,0,479
1784654747.058,1619,325392143,4.730,1.785,-8.464,0.034,-0.011,-0.097,-192.081,-28.540,0.182,0.482,-0.097,-41,10.00,0,480
1784654747.253,1620,325592141,4.733,1.800,-8.423,-0.027,0.111,0.086,-192.242,-28.418,0.184,0.483,0.086,-41,10.00,0,481
1784654747.453,1621,325792142,4.682,1.853,-8.495,-0.057,0.111,0.086,-192.286,-28.427,0.189,0.477,0.086,-41,10.00,0,482
1784654747.658,1622,325992142,4.709,1.831,-8.452,0.126,-0.041,-0.097,-192.161,-28.511,0.187,0.480,-0.097,-41,9.75,0,483
1784654747.858,1623,326192143,4.725,1.822,-8.459,0.034,0.050,-0.036,-192.173,-28.453,0.186,0.482,-0.036,-41,9.50,0,484
1784654748.053,1624,326392142,4.709,1.812,-8.474,-0.057,0.020,0.147,-192.195,-28.459,0.185,0.480,0.147,-41,9.75,0,485
1784654748.253,1625,326592143,4.725,1.843,-8.471,0.034,0.020,0.147,-192.212,-28.478,0.188,0.482,0.147,-41,9.75,0,486
1784654748.453,1626,326792142,4.685,1.848,-8.486,-0.027,0.111,0.147,-192.225,-28.381,0.188,0.478,0.147,-41,9.50,0,487
1784654748.658,1627,326992142,4.682,1.810,-8.500,0.065,-0.102,-0.097,-192.091,-28.552,0.185,0.477,-0.097,-42,9.75,0,488
1784654748.858,1628,327192141,4.723,1.756,-8.459,0.126,-0.011,-0.036,-192.131,-28.492,0.179,0.482,-0.036,-41,10.00,0,489
1784654749.053,1629,327392142,4.694,1.797,-8.514,-0.118,0.081,0.055,-192.205,-28.430,0.183,0.479,0.055,-41,10.25,0,490
1784654749.258,1630,327592141,4.680,1.802,-8.486,-0.118,-0.102,-0.006,-192.168,-28.526,0.184,0.477,-0.006,-41,9.75,0,491
1784654749.458,1631,327792141,4.744,1.776,-8.457,0.004,0.142,-0.036,-192.112,-28.480,0.181,0.484,-0.036,-41,10.50,0,492
1784654749.658,1632,327992142,4.697,1.848,-8.457,0.309,-0.011,-0.402,-192.156,-28.468,0.188,0.479,-0.402,-41,9.50,0,493
1784654749.858,1633,328192142,4.673,1.817,-8.493,-0.179,-0.163,0.025,-192.148,-28.545,0.185,0.477,0.025,-41,10.00,0,494
1784654750.058,1634,328392141,4.697,1.824,-8.469,0.065,0.142,-0.006,-192.183,-28.421,0.186,0.479,-0.006,-41,10.00,0,495
1784654750.253,1635,328592142,4.675,1.867,-8.512,-0.027,0.050,0.025,-192.186,-28.399,0.190,0.477,0.025,-41,9.75,0,496
1784654750.459,1636,328792141,4.697,1.824,-8.486,-0.027,-0.102,-0.128,-192.119,-28.530,0.186,0.479,-0.128,-41,10.50,0,497
1784654750.653,1637,328992142,4.704,1.776,-8.493,-0.057,0.050,0.055,-192.165,-28.490,0.181,0.480,0.055,-41,10.00,0,498
1784654750.853,1638,329192141,4.711,1.860,-8.464,-0.027,0.111,0.086,-192.254,-28.421,0.190,0.480,0.086,-41,10.50,0,499
1784654751.058,1639,329392142,4.699,1.855,-8.478,0.034,-0.102,-0.006,-192.213,-28.481,0.189,0.479,-0.006,-41,10.50,0,500
1784654751.258,1640,329592141,4.678,1.826,-8.505,0.034,0.081,-0.097,-192.135,-28.439,0.186,0.477,-0.097,-41,10.25,0,501
1784654751.453,1641,329792142,4.725,1.797,-8.466,0.004,0.050,0.025,-192.195,-28.519,0.183,0.482,0.025,-41,10.00,0,502
1784654751.658,1642,329992142,4.690,1.875,-8.507,0.157,0.142,-0.036,-192.166,-28.390,0.191,0.478,-0.036,-41,10.00,0,503
